[{"id": "ec9eda79-e250-4e6f-a8f6-e51021fb054f", "name": "Amsterdam Ave @ 60 St", "area": "Manhattan", "lat": 40.771057, "lon": -73.987139, "grade": "GOOD", "scene": "commercial_street", "issue": "none", "sidewalk_visible": true, "note": "Clear sidewalk activity, storefronts, pedestrians visible"}, {"id": "053e8995-f8cb-4d02-a659-70ac7c7da5db", "name": "Broadway @ 45 St", "area": "Manhattan", "lat": 40.757953, "lon": -73.98549, "grade": "GOOD", "scene": "commercial_street", "issue": "none", "sidewalk_visible": true, "note": "Clear sidewalk activity, pedestrians, storefronts visible"}, {"id": "09b1235e-d2d1-4451-83a5-5a1c3ec280aa", "name": "St Nicholas Ave @ 145 St", "area": "Manhattan", "lat": 40.824031, "lon": -73.94477, "grade": "GOOD", "scene": "commercial_street", "issue": "none", "sidewalk_visible": true, "note": "Clear street-level view, pedestrians crossing, storefronts visible"}, {"id": "ec9ffb62-e3bf-4352-8bcf-7c9adf5fbe9c", "name": "8th Ave @ 31st St", "area": "Manhattan", "lat": 40.750297, "lon": -73.99483, "grade": "GOOD", "scene": "commercial_street", "issue": "none", "sidewalk_visible": true, "note": "Clear sidewalk activity, pedestrians, storefronts visible"}, {"id": "f06979b2-3497-4330-9882-a06c8a442b7c", "name": "6 Ave @ 34 St", "area": "Manhattan", "lat": 40.749808, "lon": -73.987746, "grade": "GOOD", "scene": "commercial_street", "issue": "none", "sidewalk_visible": true, "note": "Clear sidewalk activity, storefronts, pedestrians, crosswalk"}, {"id": "e229e0fd-559b-4c1e-bcba-ac23db1d01e3", "name": "6 Ave @ 57 St", "area": "Manhattan", "lat": 40.7643348872061, "lon": -73.9772018595711, "grade": "GOOD", "scene": "commercial_street", "issue": "none", "sidewalk_visible": true, "note": "Clear sidewalks, storefronts, pedestrians visible, countable"}, {"id": "6d3a21dd-0434-4d92-a0d1-3ca8b77297db", "name": "5 Ave @ E 58 St", "area": "Manhattan", "lat": 40.763753, "lon": -73.973548, "grade": "GOOD", "scene": "commercial_street", "issue": "none", "sidewalk_visible": true, "note": "Clear sidewalk activity, pedestrians, storefronts visible"}, {"id": "23bcc0dd-d395-45fe-8106-676ba7293208", "name": "Varick St @ Watt St", "area": "Manhattan", "lat": 40.72379, "lon": -74.006138, "grade": "GOOD", "scene": "commercial_street", "issue": "none", "sidewalk_visible": true, "note": "Clear sidewalk, pedestrians, storefronts, countable activity."}, {"id": "08328372-55a2-448a-b180-9b4bce0b8d9e", "name": "Broadway @ Morris St", "area": "Manhattan", "lat": 40.70589, "lon": -74.0133, "grade": "GOOD", "scene": "commercial_street", "issue": "none", "sidewalk_visible": true, "note": "Dense pedestrian activity, clear storefronts, countable crowds"}, {"id": "83655dbc-7902-4fdb-926c-15fee4396b83", "name": "Broadway @ 38 St", "area": "Manhattan", "lat": 40.752453, "lon": -73.987123, "grade": "GOOD", "scene": "commercial_street", "issue": "none", "sidewalk_visible": true, "note": "Clear storefronts, pedestrians, crosswalks visible"}, {"id": "5d055599-875a-4010-991f-e7e454889052", "name": "7 Ave @ 40 St", "area": "Manhattan", "lat": 40.754746, "lon": -73.987894, "grade": "GOOD", "scene": "commercial_street", "issue": "none", "sidewalk_visible": true, "note": "Clear sidewalks, pedestrians, storefronts, countable activity."}, {"id": "9c4c2657-6796-4953-bbe6-c50f24bb5820", "name": "5 Ave @ 57 St", "area": "Manhattan", "lat": 40.7629820055328, "lon": -73.9739858644822, "grade": "GOOD", "scene": "commercial_street", "issue": "none", "sidewalk_visible": true, "note": "Clear crosswalk, multiple pedestrians, storefronts visible."}, {"id": "9955d671-39ad-4fb7-b63e-4e78cf6ac157", "name": "Flatbush Ave and 4 Ave", "area": "Brooklyn", "lat": 40.6838924508798, "lon": -73.9779424667358, "grade": "GOOD", "scene": "commercial_street", "issue": "none", "sidewalk_visible": true, "note": "Clear sidewalk activity, storefronts, pedestrians visible"}, {"id": "156b0613-239a-4e77-aa0e-0a4becfc0b05", "name": "Lenox Ave @ 125 St", "area": "Manhattan", "lat": 40.80798, "lon": -73.945472, "grade": "GOOD", "scene": "commercial_street", "issue": "none", "sidewalk_visible": true, "note": "Clear sidewalk, visible pedestrians, storefronts, crosswalk activity"}, {"id": "8f692f55-8118-423b-8bcb-1ea49eaf442b", "name": "2 Ave @ 42 St", "area": "Manhattan", "lat": 40.7498342023994, "lon": -73.9722170340956, "grade": "GOOD", "scene": "commercial_street", "issue": "none", "sidewalk_visible": true, "note": "Clear sidewalks, storefronts, pedestrians visible"}, {"id": "74915f83-bee1-46f3-be10-24e121eda081", "name": "Lexington Ave @ E 125 St", "area": "Manhattan", "lat": 40.80451, "lon": -73.937495, "grade": "GOOD", "scene": "commercial_street", "issue": "none", "sidewalk_visible": true, "note": "Clear sidewalk activity, storefronts, pedestrians visible."}, {"id": "65440c6b-ee6c-4406-8542-2992b6edf3f5", "name": "Lexington Ave @ 72 St", "area": "Manhattan", "lat": 40.770429, "lon": -73.962214, "grade": "GOOD", "scene": "commercial_street", "issue": "none", "sidewalk_visible": true, "note": "Clear sidewalk activity, crosswalk, storefronts visible"}, {"id": "5c505897-b475-4359-897d-b064bdb9feef", "name": "8 AVE @ 44 St", "area": "Manhattan", "lat": 40.75851, "lon": -73.9888, "grade": "GOOD", "scene": "commercial_street", "issue": "none", "sidewalk_visible": true, "note": "Clear sidewalk activity, storefronts, pedestrians visible"}, {"id": "4bd443cf-374f-493b-a99e-5f7ef81bb62c", "name": "3 Ave @ E 88 St", "area": "Manhattan", "lat": 40.780144, "lon": -73.953037, "grade": "GOOD", "scene": "commercial_street", "issue": "none", "sidewalk_visible": true, "note": "Clear crosswalk activity, storefronts visible, good pedestrian count"}, {"id": "1927b469-e2dc-4943-a70c-e6e52fd4c48c", "name": "Broadway @ 46 St- Quad South", "area": "Manhattan", "lat": 40.758692, "lon": -73.985371, "grade": "GOOD", "scene": "commercial_street", "issue": "none", "sidewalk_visible": true, "note": "Times Square-style pedestrian crosswalk activity visible"}, {"id": "dce301aa-b937-4041-b9fc-960abcd79178", "name": "Varick St @ Laight St", "area": "Manhattan", "lat": 40.721808, "lon": -74.006436, "grade": "GOOD", "scene": "commercial_street", "issue": "none", "sidewalk_visible": true, "note": "Clear sidewalk activity, storefronts visible, countable pedestrians"}, {"id": "9565e94d-66f2-4965-9c13-82d5500d6cfd", "name": "Broadway @ 42 St", "area": "Manhattan", "lat": 40.7558094297322, "lon": -73.9864124090652, "grade": "GOOD", "scene": "commercial_street", "issue": "none", "sidewalk_visible": true, "note": "Times Square-style pedestrian activity, countable crowds"}, {"id": "e38fd7b8-c074-4b6e-bc52-4dd932145239", "name": "Rockefeller Plaza @ W 50 St", "area": "Manhattan", "lat": 40.75907, "lon": -73.97846, "grade": "GOOD", "scene": "commercial_street", "issue": "none", "sidewalk_visible": true, "note": "Clear sidewalk activity, pedestrians, storefronts visible"}, {"id": "98b37dd5-bd64-4ace-add0-37f5135df600", "name": "St Nicholas Ave @ 125 St", "area": "Manhattan", "lat": 40.810767, "lon": -73.952593, "grade": "GOOD", "scene": "commercial_street", "issue": "none", "sidewalk_visible": true, "note": "Clear sidewalk activity, crosswalk, storefronts visible"}, {"id": "957fc40e-675c-4121-a3bc-ca3c0a246831", "name": "10 Ave @ 49 St", "area": "Manhattan", "lat": 40.764212, "lon": -73.992385, "grade": "GOOD", "scene": "commercial_street", "issue": "none", "sidewalk_visible": true, "note": "Clear sidewalk activity, storefronts, pedestrians visible"}, {"id": "6a85384f-d82e-4bff-b5f1-15c22cca70e6", "name": "8th Ave @ 33rd St", "area": "Manhattan", "lat": 40.751512, "lon": -73.993913, "grade": "GOOD", "scene": "commercial_street", "issue": "none", "sidewalk_visible": true, "note": "Clear sidewalk activity, storefronts, pedestrians visible"}, {"id": "4f3f56e3-f68e-4b60-a4ba-153ecb9094f7", "name": "6 AVE @ 50 St", "area": "Manhattan", "lat": 40.75994, "lon": -73.9805, "grade": "GOOD", "scene": "commercial_street", "issue": "none", "sidewalk_visible": true, "note": "Clear sidewalks, pedestrians, crosswalks, storefronts visible."}, {"id": "08c40d18-cacf-4139-aa64-ba8f8602af53", "name": "Northern Blvd @ 82 St", "area": "Queens", "lat": 40.755492, "lon": -73.885347, "grade": "GOOD", "scene": "commercial_street", "issue": "none", "sidewalk_visible": true, "note": "Clear sidewalk activity, storefronts, pedestrians countable"}, {"id": "36b00c79-b2a0-49d3-800a-42b7db1847a8", "name": "Jamaica Ave @ Sutphin Blvd", "area": "Queens", "lat": 40.701756, "lon": -73.80795, "grade": "GOOD", "scene": "commercial_street", "issue": "none", "sidewalk_visible": true, "note": "Clear sidewalks, storefronts, pedestrians visible"}, {"id": "8188de4c-c144-4897-bee4-767022b832e9", "name": "Grand St (Borinquen Pl) @ Union Ave", "area": "Brooklyn", "lat": 40.71096, "lon": -73.951087, "grade": "GOOD", "scene": "commercial_street", "issue": "none", "sidewalk_visible": true, "note": "Clear storefront view, crosswalk, countable pedestrian potential"}, {"id": "02d7db8e-481d-477e-9cdb-a2b6c6ec1ca3", "name": "2 Ave @ E 14 St", "area": "Manhattan", "lat": 40.732373, "lon": -73.984954, "grade": "GOOD", "scene": "commercial_street", "issue": "none", "sidewalk_visible": true, "note": "Clear sidewalks, storefronts, countable pedestrians visible"}, {"id": "180dcc87-d861-43e3-8898-9ad5ee1a26a9", "name": "Lexington Ave @ 57 ST", "area": "Manhattan", "lat": 40.7609271914359, "lon": -73.9691468531185, "grade": "GOOD", "scene": "commercial_street", "issue": "none", "sidewalk_visible": true, "note": "Clear sidewalks, storefronts, pedestrians, crosswalk visible"}, {"id": "48cd1b5b-f361-4683-9d83-492d4789d7ea", "name": "Grand St @ Allen St", "area": "Manhattan", "lat": 40.717382, "lon": -73.991308, "grade": "GOOD", "scene": "commercial_street", "issue": "none", "sidewalk_visible": true, "note": "Clear street-level view, storefronts, pedestrians, crosswalk"}, {"id": "52399045-4691-4258-8f82-12000f5719a8", "name": "Jamaica Ave @ 168 St", "area": "Queens", "lat": 40.706371, "lon": -73.792539, "grade": "GOOD", "scene": "commercial_street", "issue": "none", "sidewalk_visible": true, "note": "Clear sidewalk, storefronts, pedestrians, crosswalk visible"}, {"id": "089d8066-4e5e-4549-9496-a5f4ffb56ef5", "name": "7 Ave @ 9 St", "area": "Brooklyn", "lat": 40.666941, "lon": -73.981419, "grade": "GOOD", "scene": "commercial_street", "issue": "none", "sidewalk_visible": true, "note": "Clear sidewalk, storefronts, pedestrians visible, countable."}, {"id": "8cd15417-5b79-4065-9165-4b6ff0ff3f53", "name": "Broadway @ 46 St- Quad West", "area": "Manhattan", "lat": 40.75872, "lon": -73.98539, "grade": "GOOD", "scene": "commercial_street", "issue": "none", "sidewalk_visible": true, "note": "Clear zebra crossing, pedestrians visible, storefronts."}, {"id": "aacb43bf-ed37-44c6-a2fe-8449a7851306", "name": "5 Ave @ 35 St ", "area": "Manhattan", "lat": 40.749128, "lon": -73.984083, "grade": "GOOD", "scene": "commercial_street", "issue": "none", "sidewalk_visible": true, "note": "Clear sidewalk activity, storefronts, pedestrians countable"}, {"id": "7374a49f-373d-479a-b630-52bd07639260", "name": "Roosevelt Ave @ Elmhurst Ave", "area": "Queens", "lat": 40.748456, "lon": -73.876234, "grade": "GOOD", "scene": "commercial_street", "issue": "none", "sidewalk_visible": true, "note": "Clear sidewalk view, storefronts, pedestrians visible, countable"}, {"id": "96be7098-dda4-42da-bfe2-55bc5c6b94fb", "name": "Baxter St @ Canal Street", "area": "Manhattan", "lat": 40.7175537302479, "lon": -73.999310720446, "grade": "GOOD", "scene": "commercial_street", "issue": "none", "sidewalk_visible": true, "note": "Clear sidewalks, pedestrians, storefronts visible"}, {"id": "0c9a2836-c408-48d3-85c7-1977c33d9133", "name": "Broadway @ 46 St", "area": "Manhattan", "lat": 40.758741, "lon": -73.985437, "grade": "GOOD", "scene": "commercial_street", "issue": "none", "sidewalk_visible": true, "note": "Times Square, dense pedestrian activity, clear storefronts"}, {"id": "8437bc26-9eb8-4915-93f7-f8ea4170e739", "name": "9 AVE @ 14 St", "area": "Manhattan", "lat": 40.74095, "lon": -74.0053, "grade": "GOOD", "scene": "commercial_street", "issue": "none", "sidewalk_visible": true, "note": "Clear sidewalk activity, pedestrians, crosswalk, storefronts visible"}, {"id": "bc2fd2da-1d56-46fa-a1ab-8674fac93877", "name": "7 Ave @ 43 St - 64.186 - PTZ", "area": "Manhattan", "lat": 40.756707, "lon": -73.986442, "grade": "GOOD", "scene": "commercial_street", "issue": "none", "sidewalk_visible": true, "note": "Clear sidewalk activity, pedestrians, storefronts visible"}, {"id": "bca4a4b0-d73f-4937-9301-85ff8293bd94", "name": "7 AVE @ 42 St", "area": "Manhattan", "lat": 40.75609, "lon": -73.9869, "grade": "GOOD", "scene": "commercial_street", "issue": "none", "sidewalk_visible": true, "note": "Clear sidewalk, visible pedestrians, storefronts, crosswalk activity"}, {"id": "4850e464-1111-4b5d-a72d-f54a0e12a789", "name": "8 Ave @ 49 St", "area": "Manhattan", "lat": 40.761676, "lon": -73.986581, "grade": "GOOD", "scene": "commercial_street", "issue": "none", "sidewalk_visible": true, "note": "Clear sidewalks, pedestrians, storefronts, crosswalks visible"}, {"id": "4ebe49c8-3e68-43f7-b415-da3db9f72693", "name": "7 Ave @ 54 St", "area": "Manhattan", "lat": 40.763617, "lon": -73.981436, "grade": "GOOD", "scene": "commercial_street", "issue": "none", "sidewalk_visible": true, "note": "Clear sidewalk, storefronts, pedestrians countable."}, {"id": "63e79f0b-7dea-4c8e-864c-f3315f9cc62c", "name": "Grand St @ Broadway", "area": "Manhattan", "lat": 40.720855, "lon": -74.000655, "grade": "GOOD", "scene": "commercial_street", "issue": "none", "sidewalk_visible": true, "note": "Clear pedestrian activity, storefronts, crosswalk visible"}, {"id": "bff9cee2-1513-4af3-9838-ea7a35552049", "name": "Rockefeller Plaza @ W 51 St", "area": "Manhattan", "lat": 40.75973, "lon": -73.97807, "grade": "GOOD", "scene": "commercial_street", "issue": "none", "sidewalk_visible": true, "note": "Clear sidewalks, pedestrians visible, storefronts evident"}, {"id": "769a2e94-5bbc-4a03-86a7-39d3a70213f7", "name": "Broadway @ 96 St", "area": "Manhattan", "lat": 40.794668, "lon": -73.971788, "grade": "GOOD", "scene": "commercial_street", "issue": "none", "sidewalk_visible": true, "note": "Clear crosswalks, pedestrians, storefronts visible"}, {"id": "3df06012-4c10-46e1-81d0-55405342e8df", "name": "3 AVE @ 76 St", "area": "Manhattan", "lat": 40.77234, "lon": -73.9587, "grade": "GOOD", "scene": "commercial_street", "issue": "none", "sidewalk_visible": true, "note": "Clear sidewalks, pedestrians, storefronts visible and countable"}, {"id": "d1c219c0-afdd-4fa4-a72c-cc1b1318b99d", "name": "9 Ave @ 23 St", "area": "Manhattan", "lat": 40.7465085991952, "lon": -74.001366842392, "grade": "GOOD", "scene": "commercial_street", "issue": "none", "sidewalk_visible": true, "note": "Clear sidewalk, storefronts, pedestrians, crosswalks visible"}, {"id": "d1363c77-e061-4414-be82-e6d749254859", "name": "Madison Ave @ 42 St", "area": "Manhattan", "lat": 40.7528121596316, "lon": -73.9792838595713, "grade": "GOOD", "scene": "commercial_street", "issue": "none", "sidewalk_visible": true, "note": "Clear sidewalks, pedestrians, storefronts visible"}, {"id": "a249b3ee-bde9-4d6d-9a18-9cd2108d2eb0", "name": "Allen St @ Delancey St (B)", "area": "Manhattan", "lat": 40.719108, "lon": -73.99043, "grade": "GOOD", "scene": "commercial_street", "issue": "none", "sidewalk_visible": true, "note": "Clear sidewalk, pedestrians, storefronts, countable activity"}, {"id": "5bb6d7d8-39ce-43b8-b539-376fbcf73927", "name": "3 Ave @ 49 St", "area": "Manhattan", "lat": 40.7552116061846, "lon": -73.9712421172846, "grade": "GOOD", "scene": "commercial_street", "issue": "none", "sidewalk_visible": true, "note": "Clear sidewalk view, pedestrians visible, storefronts present"}, {"id": "1eb66413-6761-4eb0-bc04-e2533bb74b42", "name": "Madison Ave @ 49 St", "area": "Manhattan", "lat": 40.7572361824409, "lon": -73.9760573417802, "grade": "GOOD", "scene": "commercial_street", "issue": "none", "sidewalk_visible": true, "note": "Clear street-level view, pedestrians visible, storefronts"}, {"id": "d8122408-7092-41ba-a9db-ef8847edeaef", "name": "Broadway @ 43 St", "area": "Manhattan", "lat": 40.756583, "lon": -73.986156, "grade": "GOOD", "scene": "commercial_street", "issue": "none", "sidewalk_visible": true, "note": "Times Square-style pedestrian activity countable"}, {"id": "5352e130-4668-4be5-a7b9-9e1ce4ea6d4c", "name": "3 Ave @ 42 St", "area": "Manhattan", "lat": 40.7507631595424, "lon": -73.9744615986273, "grade": "GOOD", "scene": "commercial_street", "issue": "none", "sidewalk_visible": true, "note": "Clear sidewalk activity, storefronts, countable pedestrians"}, {"id": "0952329e-6b6f-4286-b5e3-b682eae94e52", "name": "Broadway @ Chambers St", "area": "Manhattan", "lat": 40.714177, "lon": -74.006307, "grade": "GOOD", "scene": "commercial_street", "issue": "none", "sidewalk_visible": true, "note": "Clear sidewalk activity, pedestrians, storefronts visible"}, {"id": "c34ca47e-e375-4b9f-a8d7-f9737566b783", "name": "6 Ave @ 42 St", "area": "Manhattan", "lat": 40.7548488195947, "lon": -73.9841249380499, "grade": "GOOD", "scene": "commercial_street", "issue": "none", "sidewalk_visible": true, "note": "Clear pedestrian activity, crosswalks, storefronts visible"}, {"id": "05468f62-4092-4ff5-9bb6-0f70e56ff544", "name": "2 Ave @ 49 St", "area": "Manhattan", "lat": 40.75426, "lon": -73.968991, "grade": "GOOD", "scene": "commercial_street", "issue": "none", "sidewalk_visible": true, "note": "Clear sidewalk, storefronts, pedestrians, crosswalks visible."}, {"id": "62b3062d-542f-40f1-86ec-206710e789b6", "name": "3 Ave @ 57 St", "area": "Manhattan", "lat": 40.760252895987, "lon": -73.967542473241, "grade": "GOOD", "scene": "commercial_street", "issue": "none", "sidewalk_visible": true, "note": "Clear sidewalks, storefronts, pedestrians, crosswalks visible."}, {"id": "63bf5db0-582d-4482-ad51-52338c7f9906", "name": "3 Ave @ 14 St", "area": "Manhattan", "lat": 40.733275, "lon": -73.987279, "grade": "GOOD", "scene": "commercial_street", "issue": "none", "sidewalk_visible": true, "note": "Clear street-level view, storefronts, pedestrians visible"}, {"id": "cd229284-a743-4ac4-9430-366f11e68d6c", "name": "Irving Pl @ 14 St", "area": "Manhattan", "lat": 40.733984, "lon": -73.988693, "grade": "GOOD", "scene": "commercial_street", "issue": "none", "sidewalk_visible": true, "note": "Clear sidewalk activity, storefronts, pedestrians countable."}, {"id": "ce81bdbd-967b-4ad0-ab40-c4628bb59560", "name": "Park Ave @ 106 St", "area": "Manhattan", "lat": 40.79294, "lon": -73.9479, "grade": "GOOD", "scene": "commercial_street", "issue": "none", "sidewalk_visible": true, "note": "Clear sidewalk, storefronts left, countable street activity"}, {"id": "cdfc2dbe-7ce3-4775-ab7a-8440a9828358", "name": "Worth Street @ Bowery", "area": "Manhattan", "lat": 40.713578, "lon": -73.998542, "grade": "GOOD", "scene": "commercial_street", "issue": "none", "sidewalk_visible": true, "note": "Clear sidewalk, pedestrians, storefronts, crosswalks visible"}, {"id": "1546f761-039c-4b5c-af5e-75c83c9f603f", "name": "Lexington Ave @ 42 St", "area": "Manhattan", "lat": 40.7514494972593, "lon": -73.976060779701, "grade": "GOOD", "scene": "commercial_street", "issue": "none", "sidewalk_visible": true, "note": "Clear sidewalk activity, crosswalks, pedestrians, taxis visible"}, {"id": "d78ebdc6-2211-479e-bda6-59d79db20258", "name": "8 Ave @ 57 St", "area": "Manhattan", "lat": 40.766796, "lon": -73.9829, "grade": "GOOD", "scene": "commercial_street", "issue": "none", "sidewalk_visible": true, "note": "Clear sidewalk activity, pedestrians, storefronts visible"}, {"id": "d45fb588-de4c-4139-9e27-5b2d4c371b3d", "name": "York Ave @ 72 St", "area": "Manhattan", "lat": 40.76687, "lon": -73.9538, "grade": "GOOD", "scene": "commercial_street", "issue": "none", "sidewalk_visible": true, "note": "Clear sidewalks, pedestrians, crosswalk, storefronts visible"}, {"id": "cb0647f4-b9fd-4065-a297-ebfcd4f8d270", "name": "Queens Plz S @ 27 St", "area": "Queens", "lat": 40.7501753, "lon": -73.9398494, "grade": "GOOD", "scene": "commercial_street", "issue": "none", "sidewalk_visible": true, "note": "Clear sidewalk, storefronts, crosswalk, countable activity"}, {"id": "76faba94-f9e5-42d7-981e-0cbbbfd4bc21", "name": "Broadway @ 46 Street", "area": "Manhattan", "lat": 40.758711, "lon": -73.985366, "grade": "GOOD", "scene": "commercial_street", "issue": "none", "sidewalk_visible": true, "note": "Clear sidewalk activity, storefronts, pedestrians visible"}, {"id": "6fa8acf2-f5bf-4200-afde-1240868ca3e3", "name": "Houston St @ Lafeyette St", "area": "Manhattan", "lat": 40.725063, "lon": -73.995413, "grade": "GOOD", "scene": "commercial_street", "issue": "none", "sidewalk_visible": true, "note": "Clear crosswalk, pedestrians, storefronts visible, countable."}, {"id": "786650de-d254-47dc-aa8a-de9a4c231a2a", "name": "2 Ave @ 23 St", "area": "Manhattan", "lat": 40.737876, "lon": -73.980926, "grade": "GOOD", "scene": "commercial_street", "issue": "none", "sidewalk_visible": true, "note": "Clear sidewalks, pedestrians, crosswalk, storefronts visible"}, {"id": "fcfbaa3d-13e5-4687-9688-ae1eab37c723", "name": "7 Ave @ 23St", "area": "Manhattan", "lat": 40.7441114245984, "lon": -73.9956503622239, "grade": "GOOD", "scene": "commercial_street", "issue": "none", "sidewalk_visible": true, "note": "Clear sidewalk activity, storefronts, pedestrians visible"}, {"id": "7a7016c5-a086-40fd-9298-90f17f8b6cea", "name": "5 Ave @ 49 St", "area": "Manhattan", "lat": 40.7579183170509, "lon": -73.9776717716469, "grade": "GOOD", "scene": "commercial_street", "issue": "none", "sidewalk_visible": true, "note": "Clear sidewalk activity, storefronts, pedestrians visible"}, {"id": "79f45918-c13e-4357-9ccb-9e3e7ea5b6af", "name": "1 Ave @ 57 st", "area": "Manhattan", "lat": 40.75823, "lon": -73.96289, "grade": "GOOD", "scene": "commercial_street", "issue": "none", "sidewalk_visible": true, "note": "Clear sidewalks, storefronts, pedestrians, crosswalks visible"}, {"id": "b55781b8-827c-40e3-b094-27c289d22f7a", "name": "10 Ave @ 42 St", "area": "Manhattan", "lat": 40.759663, "lon": -73.995317, "grade": "GOOD", "scene": "commercial_street", "issue": "none", "sidewalk_visible": true, "note": "Clear sidewalks, pedestrians, storefronts visible."}, {"id": "93dea5a7-a63f-4415-ae12-f32b62540f11", "name": "Kenmare St @ Cleveland pl", "area": "Manhattan", "lat": 40.72147, "lon": -73.9974, "grade": "GOOD", "scene": "commercial_street", "issue": "none", "sidewalk_visible": true, "note": "Clear urban street, visible pedestrians, storefronts, activity."}, {"id": "fec41cf4-e167-48ae-9d40-785d8e86078d", "name": "MHB-16 Manhattan Colonade Entr", "area": "Manhattan", "lat": 40.716139, "lon": -73.996063, "grade": "GOOD", "scene": "commercial_street", "issue": "none", "sidewalk_visible": true, "note": "Clear sidewalk activity, storefronts, crosswalk, countable pedestrians"}, {"id": "899dfa1e-a2c5-490a-b8ba-480493634846", "name": "Coney Island Ave @ Kings Hwy", "area": "Brooklyn", "lat": 40.607272, "lon": -73.961707, "grade": "GOOD", "scene": "commercial_street", "issue": "none", "sidewalk_visible": true, "note": "Clear sidewalks, storefronts, pedestrian crossing visible."}, {"id": "85809312-60f2-4a52-a694-82628529c05a", "name": "Central Park S @ Columbus Cr", "area": "Manhattan", "lat": 40.7677366852749, "lon": -73.9814615249633, "grade": "GOOD", "scene": "commercial_street", "issue": "none", "sidewalk_visible": true, "note": "Clear sidewalk activity, pedestrians, storefronts visible"}, {"id": "c5af3e42-bb95-4aa3-a9d1-2d8071412dab", "name": "Jackson Ave @ Thomson Ave", "area": "Queens", "lat": 40.746761, "lon": -73.943262, "grade": "GOOD", "scene": "commercial_street", "issue": "none", "sidewalk_visible": true, "note": "Clear sidewalks, pedestrians visible, storefronts, trees, countable activity"}, {"id": "7b0f1486-6c0c-4bd4-ac8b-800c4bf2176e", "name": "Flushing Ave @ Navy St", "area": "Brooklyn", "lat": 40.698327, "lon": -73.980586, "grade": "GOOD", "scene": "commercial_street", "issue": "none", "sidewalk_visible": true, "note": "Clear sidewalk, pedestrians, storefronts, countable activity"}, {"id": "ac9ea7e9-4ab8-4188-be33-40266bcf9378", "name": "2 AVE @ 86 St", "area": "Manhattan", "lat": 40.77787, "lon": -73.9518, "grade": "GOOD", "scene": "commercial_street", "issue": "none", "sidewalk_visible": true, "note": "Clear sidewalk activity, storefronts, pedestrians, crosswalk."}, {"id": "90f5542f-c3cf-4df2-a9b0-27a85606d659", "name": "Flatbush Ave@ 6 Ave", "area": "Brooklyn", "lat": 40.6793036647623, "lon": -73.974552154541, "grade": "GOOD", "scene": "commercial_street", "issue": "none", "sidewalk_visible": true, "note": "Clear sidewalk, storefronts, pedestrians, crosswalks visible"}, {"id": "f388803c-7e1b-4d67-ad61-87b25934a8a2", "name": "10 Ave @ 23 St", "area": "Manhattan", "lat": 40.747694, "lon": -74.004174, "grade": "GOOD", "scene": "commercial_street", "issue": "none", "sidewalk_visible": true, "note": "Clear sidewalks, storefronts, pedestrians visible"}, {"id": "b5cf34ce-697e-42a1-b22f-8eb2c1f3e79e", "name": "1 Ave @ E. Houston St", "area": "Manhattan", "lat": 40.723043, "lon": -73.988592, "grade": "GOOD", "scene": "commercial_street", "issue": "none", "sidewalk_visible": true, "note": "Clear sidewalks, pedestrians visible, storefronts, crosswalks"}, {"id": "b331d9d1-c081-4476-8302-83445ac196e7", "name": "Dyer Ave @ 42 Street", "area": "Manhattan", "lat": 40.7589811180163, "lon": -73.9939438000961, "grade": "GOOD", "scene": "commercial_street", "issue": "none", "sidewalk_visible": true, "note": "Clear sidewalk activity, storefronts, pedestrians visible"}, {"id": "ed12f2da-9f65-44f0-a162-123c412716c6", "name": "Canal Street @ Allen Street", "area": "Manhattan", "lat": 40.7150861999536, "lon": -73.9925114202795, "grade": "GOOD", "scene": "commercial_street", "issue": "none", "sidewalk_visible": true, "note": "Clear street-level view, storefronts visible, countable activity"}, {"id": "ee1b1d85-e8ce-485f-a539-12962933eb9f", "name": "7 Ave @ 34 St", "area": "Manhattan", "lat": 40.7510195668227, "lon": -73.9906285955498, "grade": "GOOD", "scene": "commercial_street", "issue": "none", "sidewalk_visible": true, "note": "Clear sidewalk activity, pedestrians, storefronts visible"}, {"id": "d47d2f63-cdc1-4f28-bc4c-e64ac07e4f1d", "name": "Union Sq @ 14 St", "area": "Manhattan", "lat": 40.73483, "lon": -73.99087, "grade": "GOOD", "scene": "commercial_street", "issue": "none", "sidewalk_visible": true, "note": "Clear urban canyon, visible pedestrians, storefronts, countable activity."}, {"id": "eafc65f5-6ff9-4203-905f-3995b9fbc9eb", "name": "1 Ave @ 23 St", "area": "Manhattan", "lat": 40.7368873405677, "lon": -73.9785319648825, "grade": "GOOD", "scene": "commercial_street", "issue": "none", "sidewalk_visible": true, "note": "Clear sidewalks, pedestrians visible, crosswalks countable"}, {"id": "83bf2591-579d-415b-a0d4-fe39868b46d1", "name": "8 Ave @ 42 St", "area": "Manhattan", "lat": 40.7572405048358, "lon": -73.9897804546602, "grade": "GOOD", "scene": "commercial_street", "issue": "none", "sidewalk_visible": true, "note": "Clear sidewalk, pedestrians, crosswalk, storefronts visible"}, {"id": "f5c6fd9c-8e5b-4c3c-8c3e-31233678f15b", "name": "Lexington Ave @ 96 St", "area": "Manhattan", "lat": 40.785793, "lon": -73.951017, "grade": "GOOD", "scene": "commercial_street", "issue": "none", "sidewalk_visible": true, "note": "Clear sidewalk, storefronts, pedestrians, crosswalk visible"}, {"id": "f3d82b25-6b10-44c7-ae89-30df075a7ac8", "name": "Broadway @ 46 St- Quad North", "area": "Manhattan", "lat": 40.758722, "lon": -73.98536, "grade": "GOOD", "scene": "commercial_street", "issue": "none", "sidewalk_visible": true, "note": "Clear overhead view of Times Square pedestrian crosswalks, crowds"}, {"id": "e8a479f8-5170-4f1f-b258-b9745c966c71", "name": "Vanderbilt Ave @ E 45 St", "area": "Manhattan", "lat": 40.754297, "lon": -73.976936, "grade": "GOOD", "scene": "commercial_street", "issue": "none", "sidewalk_visible": true, "note": "Busy street-level activity, multiple pedestrians, storefronts visible"}, {"id": "fb31c502-9b4a-4c19-9b26-5b84a1a39ec3", "name": "Amsterdam Ave @ 79 St", "area": "Manhattan", "lat": 40.783141, "lon": -73.978322, "grade": "GOOD", "scene": "commercial_street", "issue": "none", "sidewalk_visible": true, "note": "Clear street-level view, storefronts visible, countable pedestrians"}, {"id": "f4e822f7-d2a2-4146-851c-04b2fa6d5265", "name": "5 Ave @ 42 St", "area": "Manhattan", "lat": 40.7534920464028, "lon": -73.9808970054167, "grade": "GOOD", "scene": "commercial_street", "issue": "none", "sidewalk_visible": true, "note": "Clear sidewalk, multiple pedestrians, crosswalks, storefronts visible"}, {"id": "fc7db899-7a79-41f3-b9b1-b23ce64c5a5e", "name": "7 Ave @ 49 St", "area": "Manhattan", "lat": 40.7604823513464, "lon": -73.983738054794, "grade": "GOOD", "scene": "commercial_street", "issue": "none", "sidewalk_visible": true, "note": "Times Square-type commercial; many visible pedestrians, crosswalks, storefronts"}, {"id": "f2964d50-042c-4021-8b52-992c08c6ff6f", "name": "8 Ave @ 34 St", "area": "Manhattan", "lat": 40.7521973661027, "lon": -73.9934562042021, "grade": "GOOD", "scene": "commercial_street", "issue": "none", "sidewalk_visible": true, "note": "Clear sidewalks, pedestrians, crosswalks, storefronts visible"}, {"id": "f0b924fe-0df6-4ac2-85a2-5d2b96d081d5", "name": "7 Ave @ 57 St", "area": "Manhattan", "lat": 40.765534775125, "lon": -73.9800400250842, "grade": "GOOD", "scene": "commercial_street", "issue": "none", "sidewalk_visible": true, "note": "Clear sidewalk activity, storefronts, pedestrians visible"}]